[
  {"id":1,"entity_name":"Department of Motor Vehicles","government_level_id":2,"state_id":1,"county_id":null,"city_id":null,"location_id":1,"latitude":38.5816,"longitude":-121.4944},
  {"id":2,"entity_name":"Los Angeles County Sheriff's Department","government_level_id":3,"state_id":1,"county_id":1,"city_id":null,"location_id":2,"latitude":34.0522,"longitude":-118.2437},
  {"id":3,"entity_name":"Los Angeles Police Department","government_level_id":4,"state_id":1,"county_id":1,"city_id":1,"location_id":3,"latitude":34.0522,"longitude":-118.2437},
  {"id":4,"entity_name":"Chicago Department of Transportation","government_level_id":4,"state_id":6,"county_id":2,"city_id":2,"location_id":4,"latitude":41.8781,"longitude":-87.6298},
  {"id":5,"entity_name":"Texas Department of Public Safety","government_level_id":2,"state_id":2,"county_id":null,"city_id":null,"location_id":5,"latitude":30.2672,"longitude":-97.7431},
  {"id":6,"entity_name":"Harris County Clerk's Office","government_level_id":3,"state_id":2,"county_id":3,"city_id":null,"location_id":6,"latitude":29.7604,"longitude":-95.3698},
  {"id":7,"entity_name":"Houston Fire Department","government_level_id":4,"state_id":2,"county_id":3,"city_id":3,"location_id":7,"latitude":29.7604,"longitude":-95.3698},
  {"id":8,"entity_name":"Florida Department of Health","government_level_id":2,"state_id":3,"county_id":null,"city_id":null,"location_id":8,"latitude":30.39,"longitude":-84.23}
]
